[
  {
    "id": 1,
    "name": "Adana",
    "latitude": 37.0,
    "longitude": 35.3213
  },
  {
    "id": 2,
    "name": "Adıyaman",
    "latitude": 37.7648,
    "longitude": 38.2786
  },
  {
    "id": 3,
    "name": "Afyonkarahisar",
    "latitude": 38.7507,
    "longitude": 30.5567
  },
  {
    "id": 4,
    "name": "Ağrı",
    "latitude": 39.7191,
    "longitude": 43.0503
  },
  {
    "id": 5,
    "name": "Amasya",
    "latitude": 40.6499,
    "longitude": 35.8353
  },
  {
    "id": 6,
    "name": "Ankara",
    "latitude": 39.9208,
    "longitude": 32.8541
  },
  {
    "id": 7,
    "name": "Antalya",
    "latitude": 36.8841,
    "longitude": 30.7056
  },
  {
    "id": 8,
    "name": "Artvin",
    "latitude": 41.1828,
    "longitude": 41.8183
  },
  {
    "id": 9,
    "name": "Aydın",
    "latitude": 37.856,
    "longitude": 27.8416
  },
  {
    "id": 10,
    "name": "Balıkesir",
    "latitude": 39.6484,
    "longitude": 27.8826
  },
  {
    "id": 11,
    "name": "Bilecik",
    "latitude": 40.0567,
    "longitude": 30.0665
  },
  {
    "id": 12,
    "name": "Bingöl",
    "latitude": 39.0626,
    "longitude": 40.7696
  },
  {
    "id": 13,
    "name": "Bitlis",
    "latitude": 38.3938,
    "longitude": 42.1232
  },
  {
    "id": 14,
    "name": "Bolu",
    "latitude": 40.576,
    "longitude": 31.5788
  },
  {
    "id": 15,
    "name": "Burdur",
    "latitude": 37.4613,
    "longitude": 30.0665
  },
  {
    "id": 16,
    "name": "Bursa",
    "latitude": 40.2669,
    "longitude": 29.0634
  },
  {
    "id": 17,
    "name": "Çanakkale",
    "latitude": 40.1553,
    "longitude": 26.4142
  },
  {
    "id": 18,
    "name": "Çankırı",
    "latitude": 40.6013,
    "longitude": 33.6134
  },
  {
    "id": 19,
    "name": "Çorum",
    "latitude": 40.5506,
    "longitude": 34.9556
  },
  {
    "id": 20,
    "name": "Denizli",
    "latitude": 37.7765,
    "longitude": 29.0864
  },
  {
    "id": 21,
    "name": "Diyarbakır",
    "latitude": 37.9144,
    "longitude": 40.2306
  },
  {
    "id": 22,
    "name": "Edirne",
    "latitude": 41.6818,
    "longitude": 26.5623
  },
  {
    "id": 23,
    "name": "Elâzığ",
    "latitude": 38.681,
    "longitude": 39.2264
  },
  {
    "id": 24,
    "name": "Erzincan",
    "latitude": 39.75,
    "longitude": 39.5
  },
  {
    "id": 25,
    "name": "Erzurum",
    "latitude": 39.9,
    "longitude": 41.27
  },
  {
    "id": 26,
    "name": "Eskişehir",
    "latitude": 39.7767,
    "longitude": 30.5206
  },
  {
    "id": 27,
    "name": "Gaziantep",
    "latitude": 37.0662,
    "longitude": 37.3833
  },
  {
    "id": 28,
    "name": "Giresun",
    "latitude": 40.9128,
    "longitude": 38.3895
  },
  {
    "id": 29,
    "name": "Gümüşhane",
    "latitude": 40.4386,
    "longitude": 39.5086
  },
  {
    "id": 30,
    "name": "Hakkâri",
    "latitude": 37.5833,
    "longitude": 43.7333
  },
  {
    "id": 31,
    "name": "Hatay",
    "latitude": 36.4018,
    "longitude": 36.3498
  },
  {
    "id": 32,
    "name": "Isparta",
    "latitude": 37.7648,
    "longitude": 30.5566
  },
  {
    "id": 33,
    "name": "Mersin",
    "latitude": 36.8,
    "longitude": 34.6333
  },
  {
    "id": 34,
    "name": "İstanbul",
    "latitude": 41.0053,
    "longitude": 28.977
  },
  {
    "id": 35,
    "name": "İzmir",
    "latitude": 38.4189,
    "longitude": 27.1287
  },
  {
    "id": 36,
    "name": "Kars",
    "latitude": 40.6167,
    "longitude": 43.1
  },
  {
    "id": 37,
    "name": "Kastamonu",
    "latitude": 41.3887,
    "longitude": 33.7827
  },
  {
    "id": 38,
    "name": "Kayseri",
    "latitude": 38.7312,
    "longitude": 35.4787
  },
  {
    "id": 39,
    "name": "Kırklareli",
    "latitude": 41.7333,
    "longitude": 27.2167
  },
  {
    "id": 40,
    "name": "Kırşehir",
    "latitude": 39.1425,
    "longitude": 34.1709
  },
  {
    "id": 41,
    "name": "Kocaeli",
    "latitude": 40.8533,
    "longitude": 29.8815
  },
  {
    "id": 42,
    "name": "Konya",
    "latitude": 37.8667,
    "longitude": 32.4833
  },
  {
    "id": 43,
    "name": "Kütahya",
    "latitude": 39.4167,
    "longitude": 29.9833
  },
  {
    "id": 44,
    "name": "Malatya",
    "latitude": 38.3552,
    "longitude": 38.3095
  },
  {
    "id": 45,
    "name": "Manisa",
    "latitude": 38.6191,
    "longitude": 27.4289
  },
  {
    "id": 46,
    "name": "Kahramanmaraş",
    "latitude": 37.5858,
    "longitude": 36.9371
  },
  {
    "id": 47,
    "name": "Mardin",
    "latitude": 37.3212,
    "longitude": 40.7245
  },
  {
    "id": 48,
    "name": "Muğla",
    "latitude": 37.2153,
    "longitude": 28.3636
  },
  {
    "id": 49,
    "name": "Muş",
    "latitude": 38.9462,
    "longitude": 41.7539
  },
  {
    "id": 50,
    "name": "Nevşehir",
    "latitude": 38.6939,
    "longitude": 34.6857
  },
  {
    "id": 51,
    "name": "Niğde",
    "latitude": 37.9667,
    "longitude": 34.6833
  },
  {
    "id": 52,
    "name": "Ordu",
    "latitude": 40.9839,
    "longitude": 37.8764
  },
  {
    "id": 53,
    "name": "Rize",
    "latitude": 41.0201,
    "longitude": 40.5234
  },
  {
    "id": 54,
    "name": "Sakarya",
    "latitude": 40.694,
    "longitude": 30.4358
  },
  {
    "id": 55,
    "name": "Samsun",
    "latitude": 41.2928,
    "longitude": 36.3313
  },
  {
    "id": 56,
    "name": "Siirt",
    "latitude": 37.9333,
    "longitude": 41.95
  },
  {
    "id": 57,
    "name": "Sinop",
    "latitude": 42.0231,
    "longitude": 35.1531
  },
  {
    "id": 58,
    "name": "Sivas",
    "latitude": 39.7477,
    "longitude": 37.0179
  },
  {
    "id": 59,
    "name": "Tekirdağ",
    "latitude": 40.9833,
    "longitude": 27.5167
  },
  {
    "id": 60,
    "name": "Tokat",
    "latitude": 40.3167,
    "longitude": 36.55
  },
  {
    "id": 61,
    "name": "Trabzon",
    "latitude": 41.0015,
    "longitude": 39.7178
  },
  {
    "id": 62,
    "name": "Tunceli",
    "latitude": 39.3074,
    "longitude": 39.4388
  },
  {
    "id": 63,
    "name": "Şanlıurfa",
    "latitude": 37.1591,
    "longitude": 38.7969
  },
  {
    "id": 64,
    "name": "Uşak",
    "latitude": 38.6823,
    "longitude": 29.4082
  },
  {
    "id": 65,
    "name": "Van",
    "latitude": 38.4891,
    "longitude": 43.4089
  },
  {
    "id": 66,
    "name": "Yozgat",
    "latitude": 39.8181,
    "longitude": 34.8147
  },
  {
    "id": 67,
    "name": "Zonguldak",
    "latitude": 41.4564,
    "longitude": 31.7987
  },
  {
    "id": 68,
    "name": "Aksaray",
    "latitude": 38.3687,
    "longitude": 34.037
  },
  {
    "id": 69,
    "name": "Bayburt",
    "latitude": 40.2552,
    "longitude": 40.2249
  },
  {
    "id": 70,
    "name": "Karaman",
    "latitude": 37.1759,
    "longitude": 33.2287
  },
  {
    "id": 71,
    "name": "Kırıkkale",
    "latitude": 39.8468,
    "longitude": 33.5153
  },
  {
    "id": 72,
    "name": "Batman",
    "latitude": 37.8812,
    "longitude": 41.1351
  },
  {
    "id": 73,
    "name": "Şırnak",
    "latitude": 37.4187,
    "longitude": 42.4918
  },
  {
    "id": 74,
    "name": "Bartın",
    "latitude": 41.5811,
    "longitude": 32.461
  },
  {
    "id": 75,
    "name": "Ardahan",
    "latitude": 41.1105,
    "longitude": 42.7022
  },
  {
    "id": 76,
    "name": "Iğdır",
    "latitude": 39.888,
    "longitude": 44.0048
  },
  {
    "id": 77,
    "name": "Yalova",
    "latitude": 40.65,
    "longitude": 29.2667
  },
  {
    "id": 78,
    "name": "Karabük",
    "latitude": 41.2061,
    "longitude": 32.6204
  },
  {
    "id": 79,
    "name": "Kilis",
    "latitude": 36.7184,
    "longitude": 37.1212
  },
  {
    "id": 80,
    "name": "Osmaniye",
    "latitude": 37.213,
    "longitude": 36.1763
  },
  {
    "id": 81,
    "name": "Düzce",
    "latitude": 40.8438,
    "longitude": 31.1565
  }
]
